$GNRMC,123644.00,A,1257.44777,N,07738.49159,E,0.121,,050423,,,D,V*18
$GNVTG,,T,,M,0.121,N,0.224,K,D*3E
$GNGGA,123644.00,1257.44777,N,07738.49159,E,2,12,1.01,900.6,M,-86.4,M,,0000*61
$GNGSA,A,3,18,25,02,29,12,23,13,05,,,,,2.20,1.01,1.95,1*0E
$GNGSA,A,3,79,80,68,,,,,,,,,,2.20,1.01,1.95,2*07
$GNGSA,A,3,36,11,24,25,,,,,,,,,2.20,1.01,1.95,3*0A
$GNGSA,A,3,37,27,,,,,,,,,,,2.20,1.01,1.95,4*08
$GPGSV,4,1,16,02,33,333,36,05,48,019,27,11,13,054,,12,50,195,32,1*6F
$GPGSV,4,2,16,13,34,108,21,15,47,151,,18,15,291,35,20,23,031,,1*68
$GPGSV,4,3,16,23,24,229,41,24,10,181,,25,54,254,42,29,39,345,32,1*61
$GPGSV,4,4,16,36,36,258,40,40,60,242,37,41,74,157,30,49,08,266,,1*6B
$GLGSV,3,1,10,66,29,038,,67,68,106,,68,34,184,24,78,05,179,,1*74
$GLGSV,3,2,10,79,26,225,33,80,21,282,38,81,27,042,,82,22,349,16,1*76
$GLGSV,3,3,10,83,01,312,,88,06,089,,1*74
$GAGSV,3,1,12,02,16,311,,04,36,080,,05,11,197,,09,43,151,,7*7C
$GAGSV,3,2,12,10,26,039,,11,35,008,12,12,12,060,,18,60,014,,7*7F
$GAGSV,3,3,12,24,38,184,33,25,50,264,38,31,00,155,,36,25,312,33,7*78
$GBGSV,5,1,17,01,14,094,,02,74,151,,03,50,106,,05,64,237,,1*79
$GBGSV,5,2,17,06,19,138,,07,45,144,,08,35,013,,09,18,154,,1*78
$GBGSV,5,3,17,10,60,148,09,11,04,104,,13,44,002,,14,16,038,,1*7D
$GBGSV,5,4,17,16,18,133,,23,16,184,,27,21,326,38,28,45,020,,1*76
$GBGSV,5,5,17,37,24,236,43,1*42
$GNGLL,1257.44777,N,07738.49159,E,123644.00,A,D*79
$GNRMC,123645.00,A,1257.44778,N,07738.49128,E,0.309,,050423,,,D,V*18
$GNVTG,,T,,M,0.309,N,0.571,K,D*31
$GNGGA,123645.00,1257.44778,N,07738.49128,E,2,12,1.01,900.2,M,-86.4,M,,0000*6D
$GNGSA,A,3,18,25,02,29,12,23,13,05,,,,,2.20,1.01,1.95,1*0E
$GNGSA,A,3,79,80,68,,,,,,,,,,2.20,1.01,1.95,2*07
$GNGSA,A,3,36,11,24,25,,,,,,,,,2.20,1.01,1.95,3*0A
$GNGSA,A,3,37,27,,,,,,,,,,,2.20,1.01,1.95,4*08
$GPGSV,4,1,16,02,33,333,37,05,48,019,27,11,13,054,,12,50,195,33,1*6F
$GPGSV,4,2,16,13,34,108,23,15,48,151,,18,15,291,38,20,23,031,,1*68
$GPGSV,4,3,16,23,24,229,41,24,10,181,,25,54,254,42,29,39,345,33,1*60
$GPGSV,4,4,16,36,36,258,41,40,60,242,37,41,74,157,29,49,08,266,,1*62
$GLGSV,3,1,10,66,29,038,,67,68,106,,68,34,184,23,78,05,179,,1*73
$GLGSV,3,2,10,79,26,225,33,80,21,282,37,81,27,042,,82,22,349,15,1*7A
$GLGSV,3,3,10,83,01,312,,88,06,089,,1*74
$GAGSV,3,1,12,02,16,311,,04,36,080,,05,11,197,,09,43,151,,7*7C
$GAGSV,3,2,12,10,26,039,,11,35,008,11,12,12,060,,18,60,014,,7*7C
$GAGSV,3,3,12,24,38,184,33,25,50,264,38,31,00,155,,36,25,312,33,7*78
$GBGSV,5,1,17,01,14,094,,02,74,151,,03,50,106,,05,64,237,,1*79
$GBGSV,5,2,17,06,19,138,,07,45,144,,08,35,013,,09,18,154,,1*78
$GBGSV,5,3,17,10,60,148,09,11,04,104,,13,44,002,,14,16,038,,1*7D
$GBGSV,5,4,17,16,18,133,,23,16,184,,27,21,326,37,28,45,020,,1*79
$GBGSV,5,5,17,37,24,236,43,1*42
$GNGLL,1257.44778,N,07738.49128,E,123645.00,A,D*71
µb
$GNRMC,123646.00,A,1257.44780,N,07738.49111,E,0.502,194.30,050423,,,D,V*0A
$GNVTG,194.30,T,,M,0.502,N,0.931,K,D*25
$GNGGA,123646.00,1257.44780,N,07738.49111,E,2,12,1.24,899.9,M,-86.4,M,,0000*6E
$GNGSA,A,3,18,25,02,29,12,23,13,05,,,,,2.44,1.24,2.10,1*05
$GNGSA,A,3,79,80,,,,,,,,,,,2.44,1.24,2.10,2*02
$GNGSA,A,3,36,11,24,25,,,,,,,,,2.44,1.24,2.10,3*01
$GNGSA,A,3,37,27,,,,,,,,,,,2.44,1.24,2.10,4*03
$GPGSV,4,1,16,02,33,333,39,05,48,019,28,11,13,054,,12,50,195,32,1*6F
$GPGSV,4,2,16,13,34,108,25,15,48,151,,18,15,291,38,20,23,031,,1*6E
$GPGSV,4,3,16,23,24,229,42,24,10,181,,25,54,254,43,29,39,345,33,1*62
$GPGSV,4,4,16,36,36,258,41,40,60,242,40,41,74,157,29,49,08,266,,1*62
$GLGSV,3,1,10,66,29,038,,67,68,106,,68,34,184,,78,05,179,,1*72
$GLGSV,3,2,10,79,26,225,33,80,21,282,39,81,27,042,,82,22,349,12,1*73
$GLGSV,3,3,10,83,01,312,,88,06,089,,1*74
$GAGSV,3,1,12,02,16,311,,04,36,080,,05,11,197,,09,43,151,,7*7C
$GAGSV,3,2,12,10,26,039,,11,35,008,11,12,12,060,,18,60,014,,7*7C
$GAGSV,3,3,12,24,38,184,33,25,50,264,39,31,00,155,,36,25,312,34,7*7E
$GBGSV,5,1,17,01,14,094,,02,74,151,,03,50,106,,05,64,237,27,1*7C
$GBGSV,5,2,17,06,19,138,,07,45,144,,08,35,013,,09,18,154,,1*78
$GBGSV,5,3,17,10,60,148,08,11,04,104,,13,44,002,,14,16,038,,1*7C
$GBGSV,5,4,17,16,18,133,,23,16,184,,27,21,326,37,28,45,020,21,1*7A
$GBGSV,5,5,17,37,24,236,44,1*45
$GNGLL,1257.44780,N,07738.49111,E,123646.00,A,D*7F
$GNRMC,123647.00,A,1257.44779,N,07738.49105,E,0.526,,050423,,,D,V*1F
$GNVTG,,T,,M,0.526,N,0.974,K,D*33
$GNGGA,123647.00,1257.44779,N,07738.49105,E,2,12,1.12,899.7,M,-86.4,M,,0000*67
$GNGSA,A,3,18,25,02,29,12,23,13,05,,,,,2.32,1.12,2.03,1*03
$GNGSA,A,3,79,80,,,,,,,,,,,2.32,1.12,2.03,2*04
$GNGSA,A,3,36,11,24,25,,,,,,,,,2.32,1.12,2.03,3*07
$GNGSA,A,3,37,27,05,,,,,,,,,,2.32,1.12,2.03,4*00
$GPGSV,4,1,16,02,33,333,37,05,48,019,31,11,13,054,,12,50,195,33,1*68
$GPGSV,4,2,16,13,34,108,28,15,48,151,,18,15,291,37,20,23,031,,1*6C
$GPGSV,4,3,16,23,24,229,41,24,10,181,,25,54,254,41,29,39,345,34,1*64
$GPGSV,4,4,16,36,36,258,40,40,60,242,39,41,74,157,31,49,08,266,,1*64
$GLGSV,3,1,10,66,29,038,,67,68,106,,68,34,184,,78,05,179,,1*72
$GLGSV,3,2,10,79,26,225,33,80,21,282,36,81,27,042,,82,22,349,,1*7F
$GLGSV,3,3,10,83,01,312,,88,06,089,,1*74
$GAGSV,3,1,12,02,16,311,,04,36,080,,05,11,197,,09,43,151,,7*7C
$GAGSV,3,2,12,10,26,039,,11,35,008,11,12,12,060,,18,60,014,,7*7C
$GAGSV,3,3,12,24,38,184,34,25,50,264,39,31,00,155,,36,25,312,35,7*78
$GBGSV,5,1,17,01,14,094,,02,74,151,,03,50,106,,05,64,237,29,1*72
$GBGSV,5,2,17,06,19,138,,07,45,144,,08,35,013,,09,18,154,,1*78
$GBGSV,5,3,17,10,60,148,,11,04,104,,13,44,002,,14,16,038,,1*74
$GBGSV,5,4,17,16,18,133,,23,16,184,,27,21,326,37,28,45,020,24,1*7F
$GBGSV,5,5,17,37,24,236,44,1*45
$GNGLL,1257.44779,N,07738.49105,E,123647.00,A,D*7D